{"name":"Wetzel's Pretzels","business_id":"vjTVxnsQEZ34XjYNS-XUpA","city":"Phoenix","categories":"Food, Pretzels, Bakeries, Fast Food, Restaurants","address":"4550 East Cactus Rd, #KSFC-4","review_count":10,"hours":{"Monday": "10:0-21:0", "Tuesday": "10:0-21:0", "Wednesday": "10:0-21:0", "Thursday": "10:0-21:0", "Friday": "10:0-21:0", "Saturday": "10:0-21:0", "Sunday": "11:0-18:0"}}
{"name":"Nami","business_id":"5DDumAHRKumv3gZiPKW6iw","city":"Phoenix","categories":"Bakeries, Coffee & Tea, Food, Vegan, Restaurants","address":"2014 N 7th St","review_count":768,"hours":{"Monday": "0:0-0:0", "Tuesday": "7:0-21:30", "Wednesday": "7:0-21:30", "Thursday": "7:0-21:30", "Friday": "7:0-21:30", "Saturday": "7:0-21:30", "Sunday": "7:0-21:30"}}
{"name":"Juan's Authentic Mexican Food","business_id":"_6mvQX9x66oz046eS5ii8w","city":"Phoenix","categories":"Mexican, Restaurants","address":"1516 E Thomas Rd","review_count":238,"hours":{"Monday": "10:0-21:0", "Tuesday": "10:0-21:0", "Wednesday": "10:0-21:0", "Thursday": "10:0-21:0", "Friday": "10:0-21:0", "Saturday": "10:0-20:0"}}
{"name":"Mamma Toledo's The Pie Hole","business_id":"9O-L6F0cMfNmE5i07pN_xQ","city":"Phoenix","categories":"Comfort Food, Waffles, Breakfast & Brunch, Food Trucks, Coffee & Tea, Bakeries, Restaurants, Food","address":"15414 N 7th St, Ste 6","review_count":226,"hours":{"Monday": "0:0-0:0", "Tuesday": "8:0-18:0", "Wednesday": "8:0-18:0", "Thursday": "7:0-19:0", "Friday": "7:0-19:0", "Saturday": "7:0-19:0", "Sunday": "7:0-19:0"}}
{"name":"Zipps Sports Grill","business_id":"wERcL1KznuTgfltSKQt_jg","city":"Phoenix","categories":"American (Traditional), Nightlife, Restaurants, Sports Bars, Bars","address":"1515 E Bethany Home Rd, Ste 100","review_count":287,"hours":{"Monday": "0:0-0:0", "Tuesday": "11:0-0:30", "Wednesday": "11:0-0:30", "Thursday": "11:0-0:30", "Friday": "11:0-2:0", "Saturday": "11:0-17:30", "Sunday": "11:0-17:30"}}
{"name":"Carl's Jr","business_id":"fnZrZlqW1Z8iWgTVDfv_MA","city":"Las Vegas","categories":"Mexican, Restaurants, Fast Food","address":"9595 W Tropicana Ave","review_count":15,"hours":null}
{"name":"Xplozone Trampoline Park","business_id":"e1ZqkqjLsUCo4vIBLzaTDA","city":"Las Vegas","categories":"Trampoline Parks, Active Life, Food Court, Korean, Restaurants","address":"2640 S Decatur Blvd","review_count":94,"hours":{"Monday": "10:0-22:0", "Tuesday": "12:0-22:0", "Wednesday": "12:0-22:0", "Thursday": "12:0-22:0", "Friday": "12:0-22:0", "Saturday": "10:0-22:0", "Sunday": "10:0-22:0"}}
{"name":"Michael Mina","business_id":"-3zffZUHoY8bQjGfPSoBKQ","city":"Las Vegas","categories":"Restaurants, Bars, Nightlife, American (New), Seafood","address":"3600 S Las Vegas Blvd","review_count":681,"hours":{"Monday": "0:0-0:0", "Tuesday": "17:30-22:0", "Wednesday": "17:30-22:0", "Thursday": "17:30-22:0", "Friday": "17:30-22:0", "Saturday": "17:30-22:0"}}
{"name":"Chicago Joe's","business_id":"MNaPOkqm2vKeNG8EqkZWCg","city":"Las Vegas","categories":"Sandwiches, Italian, Restaurants, Seafood","address":"820 S 4th St","review_count":478,"hours":{"Tuesday": "11:0-22:0", "Wednesday": "11:0-22:0", "Thursday": "11:0-22:0", "Friday": "11:0-22:0", "Saturday": "17:0-22:0"}}
{"name":"Veggie House","business_id":"AtD6B83S4Mbmq0t7iDnUVA","city":"Las Vegas","categories":"Restaurants, Specialty Food, Japanese, Sushi Bars, Dim Sum, Vegetarian, Food, Ramen, Chinese, Vegan","address":"5115 Spring Mountain Rd, Ste 203","review_count":1142,"hours":{"Monday": "11:30-21:30", "Tuesday": "11:30-21:30", "Wednesday": "11:30-21:30", "Thursday": "11:30-21:30", "Friday": "11:30-21:30", "Saturday": "11:30-21:30", "Sunday": "11:30-21:30"}}